{"ast":null,"code":"export const findCityCoordsByName = name => {\n  return coordinates.find(coordinates => coordinates.name === name).coords;\n};\nexport const getCitiesNames = () => {\n  let cities = [];\n  coordinates.forEach(item => {\n    cities.push(item.name);\n  });\n  return cities;\n};\nconst coordinates = [{\n  name: 'Montevideo',\n  coords: {\n    time: -34.8335,\n    lon: 56.1674\n  }\n}, {\n  name: 'Punta del Este',\n  coords: {\n    lat: -34.9667,\n    lon: -54.95\n  }\n}, {\n  name: 'Colonia',\n  coords: {\n    lat: -34.1667,\n    lon: -57.5\n  }\n}, {\n  name: 'Buenos Aires',\n  coords: {\n    lat: -34.6132,\n    lon: 58.3772\n  }\n}, {\n  name: 'Canelones',\n  coords: {\n    lat: -34.5228,\n    lon: -56.2778\n  }\n}, {\n  name: 'Salto',\n  coords: {\n    lat: -31.3833,\n    lon: -57.9667\n  }\n}, {\n  name: 'Paysandú',\n  coords: {\n    lat: -32.3214,\n    lon: -58.0756\n  }\n}, {\n  name: 'Tacuarembo',\n  coords: {\n    lat: -31.7333,\n    lon: -55.9833\n  }\n}, {\n  name: 'Durazno',\n  coords: {\n    lat: -33.4131,\n    lon: -56.5006\n  }\n}, {\n  name: 'Florida',\n  coords: {\n    lat: -33.8333,\n    lon: -55.9167\n  }\n}, {\n  name: 'Cerro Largo',\n  coords: {\n    lat: -32.3333,\n    lon: -54.3333\n  }\n}, {\n  name: 'Río Negro',\n  coords: {\n    lat: -33.1325,\n    lon: -58.2956\n  }\n}, {\n  name: 'Soriano',\n  coords: {\n    lat: -33.5,\n    lon: -57.75\n  }\n}, {\n  name: 'Flores',\n  coords: {\n    lat: -33.5389,\n    lon: -56.8886\n  }\n}, {\n  name: 'Paso de los Toros',\n  coords: {\n    lat: -32.8167,\n    lon: -56.5167\n  }\n}, {\n  name: 'New York',\n  coords: {\n    lat: 40.7143,\n    lon: -74.006\n  }\n}, {\n  name: 'Rio de Janeiro',\n  coords: {\n    lat: -22.90283,\n    lon: -43.2075\n  }\n}, {\n  name: 'Florianópolis',\n  coords: {\n    lat: -27.6146,\n    lon: -48.5012\n  }\n}, {\n  name: 'Santiago',\n  coords: {\n    lat: -33.4569,\n    lon: -70.6483\n  }\n}, {\n  name: 'Cancún',\n  coords: {\n    lat: 21.1743,\n    lon: -86.8466\n  }\n}];","map":{"version":3,"names":["findCityCoordsByName","name","coordinates","find","coords","getCitiesNames","cities","forEach","item","push","time","lon","lat"],"sources":["/Users/rodoagus/Desktop/Personal_projects/Web_Weather_4_U/Weather_4_U/src/coordinates/CityCoordinates.js"],"sourcesContent":["export const findCityCoordsByName = (name) => {\n\treturn coordinates.find((coordinates) => coordinates.name === name).coords;\n};\n\nexport const getCitiesNames = () => {\n\tlet cities = [];\n\tcoordinates.forEach((item) => {\n\t\tcities.push(item.name);\n\t});\n\treturn cities;\n};\n\nconst coordinates = [\n\t{ name: 'Montevideo', coords: { time: -34.8335, lon: 56.1674 } },\n\t{ name: 'Punta del Este', coords: { lat: -34.9667, lon: -54.95 } },\n\t{ name: 'Colonia', coords: { lat: -34.1667, lon: -57.5 } },\n\t{ name: 'Buenos Aires', coords: { lat: -34.6132, lon: 58.3772 } },\n\t{ name: 'Canelones', coords: { lat: -34.5228, lon: -56.2778 } },\n\t{ name: 'Salto', coords: { lat: -31.3833, lon: -57.9667 } },\n\t{ name: 'Paysandú', coords: { lat: -32.3214, lon: -58.0756 } },\n\t{ name: 'Tacuarembo', coords: { lat: -31.7333, lon: -55.9833 } },\n\t{ name: 'Durazno', coords: { lat: -33.4131, lon: -56.5006 } },\n\t{ name: 'Florida', coords: { lat: -33.8333, lon: -55.9167 } },\n\t{ name: 'Cerro Largo', coords: { lat: -32.3333, lon: -54.3333 } },\n\t{ name: 'Río Negro', coords: { lat: -33.1325, lon: -58.2956 } },\n\t{ name: 'Soriano', coords: { lat: -33.5, lon: -57.75 } },\n\t{ name: 'Flores', coords: { lat: -33.5389, lon: -56.8886 } },\n\t{ name: 'Paso de los Toros', coords: { lat: -32.8167, lon: -56.5167 } },\n\t{ name: 'New York', coords: { lat: 40.7143, lon: -74.006 } },\n\t{ name: 'Rio de Janeiro', coords: { lat: -22.90283, lon: -43.2075 } },\n\t{ name: 'Florianópolis', coords: { lat: -27.6146, lon: -48.5012 } },\n\t{ name: 'Santiago', coords: { lat: -33.4569, lon: -70.6483 } },\n\t{ name: 'Cancún', coords: { lat: 21.1743, lon: -86.8466 } },\n];\n"],"mappings":"AAAA,OAAO,MAAMA,oBAAoB,GAAIC,IAAD,IAAU;EAC7C,OAAOC,WAAW,CAACC,IAAZ,CAAkBD,WAAD,IAAiBA,WAAW,CAACD,IAAZ,KAAqBA,IAAvD,EAA6DG,MAApE;AACA,CAFM;AAIP,OAAO,MAAMC,cAAc,GAAG,MAAM;EACnC,IAAIC,MAAM,GAAG,EAAb;EACAJ,WAAW,CAACK,OAAZ,CAAqBC,IAAD,IAAU;IAC7BF,MAAM,CAACG,IAAP,CAAYD,IAAI,CAACP,IAAjB;EACA,CAFD;EAGA,OAAOK,MAAP;AACA,CANM;AAQP,MAAMJ,WAAW,GAAG,CACnB;EAAED,IAAI,EAAE,YAAR;EAAsBG,MAAM,EAAE;IAAEM,IAAI,EAAE,CAAC,OAAT;IAAkBC,GAAG,EAAE;EAAvB;AAA9B,CADmB,EAEnB;EAAEV,IAAI,EAAE,gBAAR;EAA0BG,MAAM,EAAE;IAAEQ,GAAG,EAAE,CAAC,OAAR;IAAiBD,GAAG,EAAE,CAAC;EAAvB;AAAlC,CAFmB,EAGnB;EAAEV,IAAI,EAAE,SAAR;EAAmBG,MAAM,EAAE;IAAEQ,GAAG,EAAE,CAAC,OAAR;IAAiBD,GAAG,EAAE,CAAC;EAAvB;AAA3B,CAHmB,EAInB;EAAEV,IAAI,EAAE,cAAR;EAAwBG,MAAM,EAAE;IAAEQ,GAAG,EAAE,CAAC,OAAR;IAAiBD,GAAG,EAAE;EAAtB;AAAhC,CAJmB,EAKnB;EAAEV,IAAI,EAAE,WAAR;EAAqBG,MAAM,EAAE;IAAEQ,GAAG,EAAE,CAAC,OAAR;IAAiBD,GAAG,EAAE,CAAC;EAAvB;AAA7B,CALmB,EAMnB;EAAEV,IAAI,EAAE,OAAR;EAAiBG,MAAM,EAAE;IAAEQ,GAAG,EAAE,CAAC,OAAR;IAAiBD,GAAG,EAAE,CAAC;EAAvB;AAAzB,CANmB,EAOnB;EAAEV,IAAI,EAAE,UAAR;EAAoBG,MAAM,EAAE;IAAEQ,GAAG,EAAE,CAAC,OAAR;IAAiBD,GAAG,EAAE,CAAC;EAAvB;AAA5B,CAPmB,EAQnB;EAAEV,IAAI,EAAE,YAAR;EAAsBG,MAAM,EAAE;IAAEQ,GAAG,EAAE,CAAC,OAAR;IAAiBD,GAAG,EAAE,CAAC;EAAvB;AAA9B,CARmB,EASnB;EAAEV,IAAI,EAAE,SAAR;EAAmBG,MAAM,EAAE;IAAEQ,GAAG,EAAE,CAAC,OAAR;IAAiBD,GAAG,EAAE,CAAC;EAAvB;AAA3B,CATmB,EAUnB;EAAEV,IAAI,EAAE,SAAR;EAAmBG,MAAM,EAAE;IAAEQ,GAAG,EAAE,CAAC,OAAR;IAAiBD,GAAG,EAAE,CAAC;EAAvB;AAA3B,CAVmB,EAWnB;EAAEV,IAAI,EAAE,aAAR;EAAuBG,MAAM,EAAE;IAAEQ,GAAG,EAAE,CAAC,OAAR;IAAiBD,GAAG,EAAE,CAAC;EAAvB;AAA/B,CAXmB,EAYnB;EAAEV,IAAI,EAAE,WAAR;EAAqBG,MAAM,EAAE;IAAEQ,GAAG,EAAE,CAAC,OAAR;IAAiBD,GAAG,EAAE,CAAC;EAAvB;AAA7B,CAZmB,EAanB;EAAEV,IAAI,EAAE,SAAR;EAAmBG,MAAM,EAAE;IAAEQ,GAAG,EAAE,CAAC,IAAR;IAAcD,GAAG,EAAE,CAAC;EAApB;AAA3B,CAbmB,EAcnB;EAAEV,IAAI,EAAE,QAAR;EAAkBG,MAAM,EAAE;IAAEQ,GAAG,EAAE,CAAC,OAAR;IAAiBD,GAAG,EAAE,CAAC;EAAvB;AAA1B,CAdmB,EAenB;EAAEV,IAAI,EAAE,mBAAR;EAA6BG,MAAM,EAAE;IAAEQ,GAAG,EAAE,CAAC,OAAR;IAAiBD,GAAG,EAAE,CAAC;EAAvB;AAArC,CAfmB,EAgBnB;EAAEV,IAAI,EAAE,UAAR;EAAoBG,MAAM,EAAE;IAAEQ,GAAG,EAAE,OAAP;IAAgBD,GAAG,EAAE,CAAC;EAAtB;AAA5B,CAhBmB,EAiBnB;EAAEV,IAAI,EAAE,gBAAR;EAA0BG,MAAM,EAAE;IAAEQ,GAAG,EAAE,CAAC,QAAR;IAAkBD,GAAG,EAAE,CAAC;EAAxB;AAAlC,CAjBmB,EAkBnB;EAAEV,IAAI,EAAE,eAAR;EAAyBG,MAAM,EAAE;IAAEQ,GAAG,EAAE,CAAC,OAAR;IAAiBD,GAAG,EAAE,CAAC;EAAvB;AAAjC,CAlBmB,EAmBnB;EAAEV,IAAI,EAAE,UAAR;EAAoBG,MAAM,EAAE;IAAEQ,GAAG,EAAE,CAAC,OAAR;IAAiBD,GAAG,EAAE,CAAC;EAAvB;AAA5B,CAnBmB,EAoBnB;EAAEV,IAAI,EAAE,QAAR;EAAkBG,MAAM,EAAE;IAAEQ,GAAG,EAAE,OAAP;IAAgBD,GAAG,EAAE,CAAC;EAAtB;AAA1B,CApBmB,CAApB"},"metadata":{},"sourceType":"module"}