{"ast":null,"code":"export var findCityCoordsByName=function findCityCoordsByName(name){return coordinates.find(function(coordinates){return coordinates.name===name;}).coords;};export var citiesNames=function citiesNames(){var cities=[];coordinates.forEach(function(item){cities.push(item.name);});return cities;};var coordinates=[{name:'Montevideo',coords:{lat:-34.8335,lon:56.1674}},{name:'Punta del Este',coords:{lat:-34.9667,lon:-54.95}},{name:'Colonia',coords:{lat:-34.1667,lon:-57.5}},{name:'Buenos Aires',coords:{lat:-34.6132,lon:58.3772}},{name:'Canelones',coords:{lat:-34.5228,lon:-56.2778}},{name:'Salto',coords:{lat:-31.3833,lon:-57.9667}},{name:'Paysandú',coords:{lat:-32.3214,lon:-58.0756}},{name:'Tacuarembo',coords:{lat:-31.7333,lon:-55.9833}},{name:'Durazno',coords:{lat:-33.4131,lon:-56.5006}},{name:'Florida',coords:{lat:-33.8333,lon:-55.9167}},{name:'Cerro Largo',coords:{lat:-32.3333,lon:-54.3333}},{name:'Río Negro',coords:{lat:-33.1325,lon:-58.2956}},{name:'Soriano',coords:{lat:-33.5,lon:-57.75}},{name:'Flores',coords:{lat:-33.5389,lon:-56.8886}},{name:'Paso de los Toros',coords:{lat:-32.8167,lon:-56.5167}},{name:'New York',coords:{lat:40.7143,lon:-74.006}},{name:'Rio de Janeiro',coords:{lat:-22.90283,lon:-43.2075}},{name:'Florianópolis',coords:{lat:-27.6146,lon:-48.5012}},{name:'Santiago',coords:{lat:-33.4569,lon:-70.6483}},{name:'Cancún',coords:{lat:21.1743,lon:-86.8466}}];","map":{"version":3,"names":["findCityCoordsByName","name","coordinates","find","coords","citiesNames","cities","forEach","item","push","lat","lon"],"sources":["/Users/rodoagus/Desktop/Personal_projects/Web_Weather_4_U/Weather_4_U/src/coordinates/CityCoordinates.js"],"sourcesContent":["export const findCityCoordsByName = (name) => {\n\treturn coordinates.find((coordinates) => coordinates.name === name).coords;\n};\n\nexport const citiesNames = () => {\n\tlet cities = [];\n\tcoordinates.forEach((item) => {\n\t\tcities.push(item.name);\n\t});\n\treturn cities;\n};\n\nconst coordinates = [\n\t{ name: 'Montevideo', coords: { lat: -34.8335, lon: 56.1674 } },\n\t{ name: 'Punta del Este', coords: { lat: -34.9667, lon: -54.95 } },\n\t{ name: 'Colonia', coords: { lat: -34.1667, lon: -57.5 } },\n\t{ name: 'Buenos Aires', coords: { lat: -34.6132, lon: 58.3772 } },\n\t{ name: 'Canelones', coords: { lat: -34.5228, lon: -56.2778 } },\n\t{ name: 'Salto', coords: { lat: -31.3833, lon: -57.9667 } },\n\t{ name: 'Paysandú', coords: { lat: -32.3214, lon: -58.0756 } },\n\t{ name: 'Tacuarembo', coords: { lat: -31.7333, lon: -55.9833 } },\n\t{ name: 'Durazno', coords: { lat: -33.4131, lon: -56.5006 } },\n\t{ name: 'Florida', coords: { lat: -33.8333, lon: -55.9167 } },\n\t{ name: 'Cerro Largo', coords: { lat: -32.3333, lon: -54.3333 } },\n\t{ name: 'Río Negro', coords: { lat: -33.1325, lon: -58.2956 } },\n\t{ name: 'Soriano', coords: { lat: -33.5, lon: -57.75 } },\n\t{ name: 'Flores', coords: { lat: -33.5389, lon: -56.8886 } },\n\t{ name: 'Paso de los Toros', coords: { lat: -32.8167, lon: -56.5167 } },\n\t{ name: 'New York', coords: { lat: 40.7143, lon: -74.006 } },\n\t{ name: 'Rio de Janeiro', coords: { lat: -22.90283, lon: -43.2075 } },\n\t{ name: 'Florianópolis', coords: { lat: -27.6146, lon: -48.5012 } },\n\t{ name: 'Santiago', coords: { lat: -33.4569, lon: -70.6483 } },\n\t{ name: 'Cancún', coords: { lat: 21.1743, lon: -86.8466 } },\n];\n"],"mappings":"AAAA,MAAO,IAAMA,qBAAoB,CAAG,QAAvBA,qBAAuB,CAACC,IAAD,CAAU,CAC7C,MAAOC,YAAW,CAACC,IAAZ,CAAiB,SAACD,WAAD,QAAiBA,YAAW,CAACD,IAAZ,GAAqBA,IAAtC,EAAjB,EAA6DG,MAApE,CACA,CAFM,CAIP,MAAO,IAAMC,YAAW,CAAG,QAAdA,YAAc,EAAM,CAChC,GAAIC,OAAM,CAAG,EAAb,CACAJ,WAAW,CAACK,OAAZ,CAAoB,SAACC,IAAD,CAAU,CAC7BF,MAAM,CAACG,IAAP,CAAYD,IAAI,CAACP,IAAjB,EACA,CAFD,EAGA,MAAOK,OAAP,CACA,CANM,CAQP,GAAMJ,YAAW,CAAG,CACnB,CAAED,IAAI,CAAE,YAAR,CAAsBG,MAAM,CAAE,CAAEM,GAAG,CAAE,CAAC,OAAR,CAAiBC,GAAG,CAAE,OAAtB,CAA9B,CADmB,CAEnB,CAAEV,IAAI,CAAE,gBAAR,CAA0BG,MAAM,CAAE,CAAEM,GAAG,CAAE,CAAC,OAAR,CAAiBC,GAAG,CAAE,CAAC,KAAvB,CAAlC,CAFmB,CAGnB,CAAEV,IAAI,CAAE,SAAR,CAAmBG,MAAM,CAAE,CAAEM,GAAG,CAAE,CAAC,OAAR,CAAiBC,GAAG,CAAE,CAAC,IAAvB,CAA3B,CAHmB,CAInB,CAAEV,IAAI,CAAE,cAAR,CAAwBG,MAAM,CAAE,CAAEM,GAAG,CAAE,CAAC,OAAR,CAAiBC,GAAG,CAAE,OAAtB,CAAhC,CAJmB,CAKnB,CAAEV,IAAI,CAAE,WAAR,CAAqBG,MAAM,CAAE,CAAEM,GAAG,CAAE,CAAC,OAAR,CAAiBC,GAAG,CAAE,CAAC,OAAvB,CAA7B,CALmB,CAMnB,CAAEV,IAAI,CAAE,OAAR,CAAiBG,MAAM,CAAE,CAAEM,GAAG,CAAE,CAAC,OAAR,CAAiBC,GAAG,CAAE,CAAC,OAAvB,CAAzB,CANmB,CAOnB,CAAEV,IAAI,CAAE,UAAR,CAAoBG,MAAM,CAAE,CAAEM,GAAG,CAAE,CAAC,OAAR,CAAiBC,GAAG,CAAE,CAAC,OAAvB,CAA5B,CAPmB,CAQnB,CAAEV,IAAI,CAAE,YAAR,CAAsBG,MAAM,CAAE,CAAEM,GAAG,CAAE,CAAC,OAAR,CAAiBC,GAAG,CAAE,CAAC,OAAvB,CAA9B,CARmB,CASnB,CAAEV,IAAI,CAAE,SAAR,CAAmBG,MAAM,CAAE,CAAEM,GAAG,CAAE,CAAC,OAAR,CAAiBC,GAAG,CAAE,CAAC,OAAvB,CAA3B,CATmB,CAUnB,CAAEV,IAAI,CAAE,SAAR,CAAmBG,MAAM,CAAE,CAAEM,GAAG,CAAE,CAAC,OAAR,CAAiBC,GAAG,CAAE,CAAC,OAAvB,CAA3B,CAVmB,CAWnB,CAAEV,IAAI,CAAE,aAAR,CAAuBG,MAAM,CAAE,CAAEM,GAAG,CAAE,CAAC,OAAR,CAAiBC,GAAG,CAAE,CAAC,OAAvB,CAA/B,CAXmB,CAYnB,CAAEV,IAAI,CAAE,WAAR,CAAqBG,MAAM,CAAE,CAAEM,GAAG,CAAE,CAAC,OAAR,CAAiBC,GAAG,CAAE,CAAC,OAAvB,CAA7B,CAZmB,CAanB,CAAEV,IAAI,CAAE,SAAR,CAAmBG,MAAM,CAAE,CAAEM,GAAG,CAAE,CAAC,IAAR,CAAcC,GAAG,CAAE,CAAC,KAApB,CAA3B,CAbmB,CAcnB,CAAEV,IAAI,CAAE,QAAR,CAAkBG,MAAM,CAAE,CAAEM,GAAG,CAAE,CAAC,OAAR,CAAiBC,GAAG,CAAE,CAAC,OAAvB,CAA1B,CAdmB,CAenB,CAAEV,IAAI,CAAE,mBAAR,CAA6BG,MAAM,CAAE,CAAEM,GAAG,CAAE,CAAC,OAAR,CAAiBC,GAAG,CAAE,CAAC,OAAvB,CAArC,CAfmB,CAgBnB,CAAEV,IAAI,CAAE,UAAR,CAAoBG,MAAM,CAAE,CAAEM,GAAG,CAAE,OAAP,CAAgBC,GAAG,CAAE,CAAC,MAAtB,CAA5B,CAhBmB,CAiBnB,CAAEV,IAAI,CAAE,gBAAR,CAA0BG,MAAM,CAAE,CAAEM,GAAG,CAAE,CAAC,QAAR,CAAkBC,GAAG,CAAE,CAAC,OAAxB,CAAlC,CAjBmB,CAkBnB,CAAEV,IAAI,CAAE,eAAR,CAAyBG,MAAM,CAAE,CAAEM,GAAG,CAAE,CAAC,OAAR,CAAiBC,GAAG,CAAE,CAAC,OAAvB,CAAjC,CAlBmB,CAmBnB,CAAEV,IAAI,CAAE,UAAR,CAAoBG,MAAM,CAAE,CAAEM,GAAG,CAAE,CAAC,OAAR,CAAiBC,GAAG,CAAE,CAAC,OAAvB,CAA5B,CAnBmB,CAoBnB,CAAEV,IAAI,CAAE,QAAR,CAAkBG,MAAM,CAAE,CAAEM,GAAG,CAAE,OAAP,CAAgBC,GAAG,CAAE,CAAC,OAAtB,CAA1B,CApBmB,CAApB"},"metadata":{},"sourceType":"module"}